[
  {
    "id": 1,
    "nombre": "Central Hidroeléctrica San Gabán III",
    "info_url": "https://apps.proinversion.gob.pe/LP/sangaban/",
    "media_url": "img/1.jpg",
    "video_url": "https://www.tiktok.com/@dan.cruz.m/video/7142480709201022213?is_from_webapp=1&sender_device=pc",
    "lat": -13.6406651,
    "lon": -70.46199636566827
  },
  {
    "id": 2,
    "nombre": "Central Hidroeléctrica San Gabán II",
    "info_url": "http://www.sangaban.com.pe/index.aspx?seccion=8201",
    "media_url": "img/2.jpg",
    "video_url": "https://www.tiktok.com/@anthonyhuanca07/video/7488940089402297605?is_from_webapp=1&sender_device=pc",
    "lat": -13.71976,
    "lon": -70.4552209
  },
  {
    "id": 3,
    "nombre": "Catarata Tupuri",
    "info_url": "https://consultasenlinea.mincetur.gob.pe/fichaInventario/index.aspx?cod_Ficha=13338",
    "media_url": "img/3.jpg",
    "video_url": "https://www.tiktok.com/@muni_sangaban/video/7442873233059188024?is_from_webapp=1&sender_device=pc",
    "lat": -13.7056564,
    "lon": -70.4552016
  },
  {
    "id": 4,
    "nombre": "Mirador Sangari",
    "info_url": "http://www.sangaban.com.pe/index.aspx?seccion=8201",
    "media_url": "img/4.jpg",
    "video_url": "https://www.tiktok.com/@anthonyhuanca07/video/7488940089402297605?is_from_webapp=1&sender_device=pc",
    "lat": -13.56789,
    "lon": -70.43210
  },
  {
    "id": 5,
    "nombre": "Mirador Huayna Urqu",
    "info_url": "https://consultasenlinea.mincetur.gob.pe/fichaInventario/index.aspx?cod_Ficha=13084",
    "media_url": "img/5.jpg",
    "video_url": "https://www.tiktok.com/@anthonyhuanca07/video/7488940089402297605?is_from_webapp=1&sender_device=pc",
    "lat": -13.56789,
    "lon": -70.43210
  },
  {
    "id": 6,
    "nombre": "Santuario de Lagarto",
    "info_url": "https://consultasenlinea.mincetur.gob.pe/fichaInventario/index.aspx?cod_Ficha=4809",
    "media_url": "img/6.jpg",
    "video_url": "https://www.tiktok.com/@anthonyhuanca07/video/7488940089402297605?is_from_webapp=1&sender_device=pc",
    "lat": -13.56789,
    "lon": -70.43210
  },
  {
    "id": 8,
    "nombre": "Balneario Natural Boca del Lagarto",
    "info_url": "https://consultasenlinea.mincetur.gob.pe/fichaInventario/index.aspx?cod_Ficha=12990",
    "media_url": "img/7.jpg",
    "video_url": "https://www.tiktok.com/@anthonyhuanca07/video/7488940089402297605?is_from_webapp=1&sender_device=pc",
    "lat": -13.56789,
    "lon": -70.43210
  },
  {
    "id": 9,
    "nombre": "Catarata Alccochaka",
    "info_url": "https://consultasenlinea.mincetur.gob.pe/fichaInventario/index.aspx?cod_Ficha=13157",
    "media_url": "img/8.jpg",
    "video_url": "https://www.tiktok.com/@anthonyhuanca07/video/7488940089402297605?is_from_webapp=1&sender_device=pc",
    "lat": -13.56789,
    "lon": -70.43210
  },
  {
    "id": 10,
    "nombre": "Cascada de Quebrada Honda",
    "info_url": "https://consultasenlinea.mincetur.gob.pe/fichaInventario/index.aspx?cod_Ficha=13471",
    "media_url": "img/9.jpg",
    "video_url": "https://www.tiktok.com/@anthonyhuanca07/video/7488940089402297605?is_from_webapp=1&sender_device=pc",
    "lat": -13.56789,
    "lon": -70.43210
  },
  {
    "id": 7,
    "nombre": "Templo de Icaco",
    "info_url": "https://consultasenlinea.mincetur.gob.pe/fichaInventario/index.aspx?cod_Ficha=13471",
    "media_url": "img/10.jpg",
    "video_url": "https://www.tiktok.com/@muni_sangaban/video/7589787233553616149",
    "lat": -13.7232089,
    "lon": -70.324764
  }
]
